City_ID,City,Lat,Lng,Max Temp,Humidity,Cloudiness,Wind Speed,Country,Date
0,port elizabeth,-33.918,25.5701,17.16,99,100,1.54,ZA,1683839576
1,ushuaia,-54.8,-68.3,9.81,57,75,5.14,AR,1683839577
2,grytviken,-54.2811,-36.5092,-4.16,76,12,4.84,GS,1683839577
3,masuguru,-11.3667,38.4167,24.23,68,98,1.63,TZ,1683839577
4,cambria,35.5641,-121.0808,25.86,77,9,2.68,US,1683839578
5,kamikawa,43.84,142.7711,3.69,72,51,1.47,JP,1683839578
6,blackmans bay,-43.0167,147.3167,8.19,85,100,2.84,AU,1683839578
7,ribeira grande,38.5167,-28.7,15.99,82,2,2.24,PT,1683839578
8,hadibu,12.65,54.0333,28.73,71,91,1.21,YE,1683839358
9,posto fiscal rolim de moura,-13.0833,-62.2667,27.15,71,100,1.04,BR,1683839579
10,puerto natales,-51.7236,-72.4875,7.2,91,100,1.07,CL,1683839308
11,nguruka,-5.1092,31.0419,18.75,91,96,0.38,TZ,1683839579
12,lihue,21.9789,-159.3672,26.58,72,75,5.14,US,1683839166
13,port-aux-francais,-49.35,70.2167,7.99,91,100,18.16,TF,1683839585
14,nemuro,43.3236,145.575,3.74,79,4,4.14,JP,1683839432
15,akureyri,65.6835,-18.0878,11.55,76,100,7.16,IS,1683839449
16,thompson,55.7435,-97.8558,21.55,27,36,4.79,CA,1683839302
17,amasra,41.7463,32.3863,11.1,91,96,5.39,TR,1683839586
18,amga,60.8953,131.9608,-0.3,82,100,2.98,RU,1683839586
19,waitangi,-43.9535,-176.5597,9.34,85,35,1.34,NZ,1683839587
20,ust'-ilimsk,58.0006,102.6619,2.29,59,100,2.36,RU,1683839587
21,papatowai,-46.5619,169.4708,10.43,89,100,5.38,NZ,1683839587
22,kill devil hills,36.0307,-75.676,24.0,54,0,5.66,US,1683839588
23,carnarvon,-24.8667,113.6333,21.61,55,0,4.1,AU,1683839460
24,mananjary,-21.2167,48.3333,22.19,91,100,1.7,MG,1683839588
25,lashio,22.9333,97.75,19.4,85,100,0.78,MM,1683839588
26,ust-nera,64.5667,143.2,2.63,77,99,1.94,RU,1683839589
27,whitehorse,60.7161,-135.0538,15.57,33,75,8.23,CA,1683839066
28,albany,42.6001,-73.9662,25.76,29,4,1.79,US,1683839530
29,hawaiian paradise park,19.5933,-154.9731,26.73,72,40,4.12,US,1683839589
30,port lincoln,-34.7333,135.8667,13.82,69,12,4.21,AU,1683839517
31,minas de marcona,-15.2119,-75.1103,18.67,64,32,5.36,PE,1683839590
32,lebu,-37.6167,-73.65,14.56,89,98,3.69,CL,1683839423
33,cole harbour,44.6724,-63.4751,13.43,69,29,4.02,CA,1683839591
34,diapaga,12.0708,1.7889,31.49,42,100,6.21,BF,1683839591
35,adamstown,-25.066,-130.1015,21.36,58,92,7.8,PN,1683839591
36,champerico,14.3,-91.9167,30.96,63,2,5.38,GT,1683839592
37,klyuchi,52.2667,79.1667,9.9,67,96,3.54,RU,1683839332
38,el soberbio,-27.2985,-54.1988,16.83,67,96,1.09,AR,1683839592
39,wardha,20.75,78.6167,32.66,13,92,1.24,IN,1683839593
40,santa rosa,14.3122,121.1114,27.99,82,79,3.49,PH,1683839300
41,tiksi,71.6872,128.8694,-11.65,84,98,8.35,RU,1683839306
42,invercargill,-46.4,168.35,8.34,95,100,1.34,NZ,1683839593
43,edinburgh of the seven seas,-37.0676,-12.3116,16.69,81,90,10.71,SH,1683839594
44,maslyanino,54.3436,84.2111,5.84,94,73,2.81,RU,1683839594
45,howrah,22.5892,88.3103,30.0,79,40,2.06,IN,1683839594
46,grande prairie,55.1667,-118.8027,20.1,37,40,1.03,CA,1683838970
47,kamaishi,39.2667,141.8833,8.62,71,1,1.53,JP,1683839595
48,college,64.8569,-147.8028,16.18,46,75,5.14,US,1683839316
49,sinabang,2.4803,96.3801,28.01,82,94,4.45,ID,1683839595
50,olonkinbyen,70.9221,-8.7187,-0.42,80,58,4.58,SJ,1683839595
51,kosh-agach,50.0,88.6667,5.46,67,68,0.51,RU,1683839596
52,saint-francois,46.4154,3.9054,10.69,87,75,1.03,FR,1683839596
53,cururupu,-1.8283,-44.8683,25.36,88,46,1.51,BR,1683839596
54,kutum,14.2,24.6667,28.11,32,98,3.63,SD,1683839597
55,taulaga,-11.0553,-171.0883,28.45,71,65,5.97,AS,1683839597
56,punta arenas,-53.15,-70.9167,7.06,81,75,4.12,CL,1683839597
57,zeerust,-25.5369,26.0751,15.42,35,1,1.62,ZA,1683839597
58,severo-yeniseyskiy,60.3725,93.0408,-0.78,97,100,1.33,RU,1683839598
59,iskateley,67.6803,53.1512,0.3,98,100,5.13,RU,1683839598
60,puerto ayora,-0.7393,-90.3518,27.98,92,87,4.02,EC,1683839598
61,betio village,1.358,172.9211,30.02,82,82,4.88,KI,1683839599
62,muncie,40.1934,-85.3864,28.17,30,46,2.24,US,1683839341
63,dudinka,69.4058,86.1778,-16.32,98,34,5.65,RU,1683839599
64,kodiak,57.79,-152.4072,6.73,81,100,7.2,US,1683839599
65,vuktyl,63.8567,57.3094,1.66,77,95,3.15,RU,1683839600
66,saldanha,-33.0117,17.9442,14.23,63,95,10.74,ZA,1683839600
67,chernyshevskiy,63.0128,112.4714,-4.31,90,34,2.42,RU,1683839600
68,ilulissat,69.2167,-51.1,-1.99,80,100,7.72,GL,1683839601
69,hays,30.0502,-98.0336,32.14,67,70,3.13,US,1683839601
70,zapala,-38.8992,-70.0544,16.92,25,67,1.76,AR,1683839601
71,vorgashor,67.5833,63.95,-12.75,98,83,1.86,RU,1683839602
72,port alfred,-33.5906,26.891,17.32,96,82,0.89,ZA,1683839307
73,iqaluit,63.7506,-68.5145,-2.39,68,6,4.92,CA,1683839602
74,lubuklinggau,-3.3,102.8667,23.27,99,95,0.41,ID,1683839602
75,cabo san lucas,22.8909,-109.9124,31.17,17,0,6.17,MX,1683839603
76,bethel,41.3712,-73.414,27.05,33,75,3.09,US,1683839603
77,port shepstone,-30.7414,30.455,21.2,78,77,4.76,ZA,1683839604
78,nar'yan-mar,67.6713,53.087,0.37,98,100,5.06,RU,1683839605
79,anadyr,64.75,177.4833,4.28,60,0,2.0,RU,1683839605
80,alice,27.7523,-98.0697,33.85,62,20,6.17,US,1683839606
81,lorengau,-2.0226,147.2712,27.36,81,94,2.58,PG,1683839606
82,acarau,-2.8856,-40.12,26.51,83,44,3.94,BR,1683839607
83,inyonga,-6.7167,32.0667,18.19,85,65,1.3,TZ,1683839607
84,margaret river,-33.95,115.0667,10.59,73,75,4.22,AU,1683839607
85,northam,51.0333,-4.2167,9.78,91,12,1.18,GB,1683839608
86,nueva gerona,21.8833,-82.8,30.15,59,100,5.04,CU,1683839608
87,kerikeri,-35.2268,173.9474,11.62,96,24,1.61,NZ,1683839609
88,broken hill,-31.95,141.4333,9.36,63,38,1.43,AU,1683839609
89,manggar,-2.8833,108.2667,28.08,81,33,3.95,ID,1683839362
90,aasiaat,68.7098,-52.8699,-2.04,76,100,3.27,GL,1683839610
91,vila franca do campo,37.7167,-25.4333,17.23,92,83,1.34,PT,1683839097
92,chegdomyn,51.1167,133.0167,8.3,58,6,0.67,RU,1683839610
93,uturoa,-16.7333,-151.4333,25.95,83,100,8.36,PF,1683839611
94,airuk,7.2772,168.8203,28.21,83,100,8.02,MH,1683839611
95,aginskoye,51.1,114.53,4.56,42,61,7.01,RU,1683839611
96,soio,-6.1349,12.3689,26.92,88,23,2.91,AO,1683839612
97,tazacorte,28.629,-17.9293,20.54,91,100,8.23,ES,1683839612
98,qarazhal,48.0078,70.7903,18.84,32,100,2.69,KZ,1683839612
99,afaahiti,-17.75,-149.2833,26.93,94,100,10.17,PF,1683839613
100,west island,-12.1568,96.8225,28.99,79,75,5.66,CC,1683839597
101,petropavlovsk-kamchatsky,53.0452,158.6483,1.33,87,75,1.0,RU,1683839421
102,sovetsk,55.0839,21.8785,9.86,69,56,2.71,RU,1683839613
103,isafjordur,66.0755,-23.124,7.42,91,100,4.34,IS,1683839614
104,kapa'a,22.0752,-159.319,26.99,71,75,5.14,US,1683839392
105,gonaives,19.45,-72.6833,28.97,68,58,3.6,HT,1683839619
106,funadhoo,6.15,73.2667,27.66,84,100,7.22,MV,1683839619
107,quepos,9.4236,-84.1652,30.26,69,65,1.67,CR,1683839511
108,bardai,11.65,7.2333,29.19,38,68,1.17,NG,1683839620
109,wau,7.7029,27.9953,27.66,55,75,1.74,SS,1683839620
110,shiyan,32.6475,110.7781,14.26,83,75,2.17,CN,1683839620
111,tura,25.5198,90.2201,22.62,69,34,1.15,IN,1683839621
112,fale old settlement,-9.3852,-171.2468,28.68,78,100,6.27,TK,1683839621
113,hamilton,39.1834,-84.5333,29.44,38,40,3.6,US,1683839059
114,vilyuchinsk,52.9306,158.4028,2.15,93,99,0.33,RU,1683839621
115,ketchikan,55.3422,-131.6461,14.11,46,99,3.48,US,1683839008
116,banes,20.9625,-75.7186,28.83,63,22,5.19,CU,1683839622
117,igarka,67.4667,86.5833,-15.22,87,11,7.86,RU,1683839622
118,kapuskasing,49.4169,-82.4331,19.28,63,100,3.12,CA,1683839622
119,masingbi,8.7833,-11.95,26.62,73,53,2.84,SL,1683839623
120,yellowknife,62.456,-114.3525,19.2,34,1,7.6,CA,1683839623
121,st. john's,47.5649,-52.7093,10.38,45,13,1.34,CA,1683839503
122,obock,12.25,43.0833,24.96,73,35,2.95,DJ,1683839624
123,tolanaro,-25.0319,46.9987,22.58,91,100,4.59,MG,1683839624
124,jamestown,42.097,-79.2353,23.8,33,0,4.12,US,1683839474
125,qaqortoq,60.7167,-46.0333,3.76,77,100,1.46,GL,1683839624
126,labuan,5.2767,115.2417,27.71,79,84,1.78,MY,1683839556
127,caxito,-8.5785,13.6643,23.93,97,87,0.35,AO,1683839625
128,geraldton,-28.7667,114.6,13.23,54,21,5.66,AU,1683839625
129,manicore,-5.8092,-61.3003,24.41,96,100,0.26,BR,1683839625
130,amursk,50.2261,136.8994,7.25,57,1,1.14,RU,1683839627
131,namibe,-15.1961,12.1522,23.22,74,4,2.74,AO,1683839629
132,keflavik,64.0049,-22.5624,8.24,100,100,10.29,IS,1683839629
133,moraleja,40.0162,-6.6977,19.25,37,0,3.82,ES,1683839629
134,inarajan village,13.2736,144.7484,28.55,96,17,2.73,GU,1683839630
135,tamanrasset,22.785,5.5228,26.95,13,0,5.66,DZ,1683839630
136,houma,29.5958,-90.7195,31.0,75,75,6.17,US,1683839400
137,contai,21.7786,87.7536,28.08,82,100,3.57,IN,1683839631
138,stanley,54.868,-1.6985,10.29,91,20,2.06,GB,1683839596
139,pangody,65.85,74.4859,-15.31,96,72,2.82,RU,1683839631
140,bousso,10.4795,16.7117,32.57,37,46,2.79,TD,1683839631
141,sirte,31.2089,16.5887,18.27,84,0,2.45,LY,1683839632
142,enewetak,11.3474,162.3373,27.52,84,78,6.66,MH,1683839632
143,labrador city,52.9463,-66.9114,12.91,31,14,3.98,CA,1683839409
144,yerofey pavlovich,53.9667,121.9667,7.47,86,100,2.98,RU,1683839632
145,saipan,15.1355,145.701,28.39,100,75,3.58,MP,1683839633
146,kone,-21.0595,164.8658,23.1,71,100,2.37,NC,1683839633
147,susuman,62.7833,148.1667,1.16,82,80,0.43,RU,1683839633
148,road town,18.4167,-64.6167,27.27,71,81,5.6,VG,1683839397
149,koryazhma,61.3143,47.1691,9.41,93,100,1.21,RU,1683839346
150,constantia,44.1833,28.65,8.38,71,20,4.28,RO,1683839453
151,bilibino,68.0546,166.4372,-0.01,82,100,1.6,RU,1683839634
152,vigan,17.5747,120.3869,26.55,78,71,1.84,PH,1683839635
153,thinadhoo,0.5333,72.9333,28.12,80,86,6.28,MV,1683839635
154,port mathurin,-19.6833,63.4167,25.48,75,73,9.18,MU,1683839635
155,port douglas,-16.4833,145.4667,23.15,86,100,5.67,AU,1683839635
156,san patricio,28.017,-97.5169,32.31,62,54,6.6,US,1683839636
157,esmeraldas,-19.7625,-44.3139,24.48,60,100,2.74,BR,1683839342
158,mount isa,-20.7333,139.5,14.87,38,0,3.6,AU,1683839636
159,winnemucca,40.973,-117.7357,21.03,19,40,1.9,US,1683839343
160,udachny,66.4167,112.4,1.36,69,100,5.74,RU,1683839637
161,itoman,26.1247,127.6694,20.01,77,7,4.12,JP,1683839637
162,touros,-5.1989,-35.4608,26.27,77,71,4.98,BR,1683839637
163,bahia de kino,28.8333,-111.9333,33.84,37,0,5.67,MX,1683839638
164,bartica,6.4,-58.6167,26.18,95,99,1.7,GY,1683839638
165,kristiansund,63.1115,7.732,10.36,87,75,1.03,NO,1683839638
166,georgetown,5.4112,100.3354,28.96,84,20,0.51,MY,1683839569
167,riberalta,-10.9833,-66.1,24.93,90,97,0.83,BO,1683839639
168,bedugul,-8.2847,115.1606,18.4,97,74,1.69,ID,1683839639
169,baglung,28.2719,83.5898,17.34,35,0,2.89,NP,1683839640
170,villa gesell,-37.2639,-56.973,13.36,67,67,3.65,AR,1683839640
171,riviere-du-loup,47.8304,-69.5342,14.7,55,4,1.09,CA,1683839640
172,al ghayzah,16.2079,52.176,28.2,70,32,2.7,YE,1683839589
173,greymouth,-42.4667,171.2,6.28,66,8,2.85,NZ,1683839406
174,labytnangi,66.6572,66.4183,-10.72,97,96,1.79,RU,1683839641
175,praia da vitoria,38.7333,-27.0667,17.64,95,57,4.13,PT,1683839641
176,coquimbo,-29.9533,-71.3436,14.85,88,40,3.09,CL,1683839642
177,longyearbyen,78.2186,15.6401,-3.09,74,75,7.72,SJ,1683839642
178,bredasdorp,-34.5322,20.0403,13.01,60,100,3.95,ZA,1683839642
179,kattivakkam,13.2167,80.3167,30.05,88,100,3.87,IN,1683839643
180,sao vicente,-23.9631,-46.3919,23.88,26,72,0.45,BR,1683839643
181,vizinga,61.0749,50.1031,7.08,74,94,2.16,RU,1683839643
182,nadi,-17.8,177.4167,28.0,65,20,4.63,FJ,1683839643
183,samut prakan,13.5,100.45,31.7,76,34,4.81,TH,1683839644
184,general acha,-37.377,-64.6043,18.22,43,24,4.18,AR,1683839644
185,okhotsk,59.3833,143.3,0.48,88,100,1.29,RU,1683839644
186,qarqaraly,49.4058,75.4742,14.73,56,100,2.71,KZ,1683839644
187,hualien city,23.9769,121.6044,22.24,84,74,0.99,TW,1683839645
188,avarua,-21.2078,-159.775,27.03,74,75,8.23,CK,1683839645
189,marquette,46.5333,-87.6335,27.1,55,29,3.13,US,1683839645
190,wailua homesteads,22.0669,-159.378,26.24,72,75,5.14,US,1683839646
191,magdagachi,53.45,125.8,11.39,44,100,3.31,RU,1683839646
192,kargopol',61.5071,38.9456,10.09,66,100,2.46,RU,1683839646
193,utrik,11.2278,169.8474,27.22,81,94,7.35,MH,1683839646
194,dryden,49.7833,-92.7503,24.3,30,68,2.61,CA,1683839647
195,arraial do cabo,-22.9661,-42.0278,21.92,83,75,3.6,BR,1683839647
196,kavarna,43.4333,28.3333,8.6,83,15,4.16,BG,1683839648
197,dhidhdhoo,6.8833,73.1,28.84,77,96,3.94,MV,1683839648
198,talnakh,69.4865,88.3972,-16.55,88,21,4.93,RU,1683839449
199,badger,64.8,-147.5333,16.14,38,75,5.14,US,1683839649
200,kuandian,40.7286,124.7847,11.9,68,100,1.03,CN,1683839649
201,nakhchivan,39.2089,45.4122,18.82,42,75,4.12,AZ,1683839649
202,kittila,67.6647,24.8936,10.08,62,0,2.06,FI,1683839652
203,sao joao da barra,-21.6403,-41.0511,24.05,81,100,4.31,BR,1683839653
204,daru,-9.0763,143.2092,25.04,96,100,6.41,PG,1683839653
205,carauari,-4.8828,-66.8958,25.27,95,99,0.53,BR,1683839654
206,at taj,24.2049,23.2857,22.32,34,2,4.22,LY,1683839654
207,ola,59.5833,151.2833,1.06,87,97,1.17,RU,1683839655
208,fallon,39.4735,-118.7774,21.93,26,40,1.54,US,1683839434
209,luderitz,-26.6481,15.1594,15.85,69,100,9.79,,1683839655
210,tabou,4.423,-7.3528,26.98,87,25,3.83,CI,1683839655
211,sable-sur-sarthe,47.8376,-0.3329,13.14,93,30,3.35,FR,1683839656
212,pisco,-13.7,-76.2167,22.03,73,100,5.14,PE,1683839636
213,hasaki,35.7333,140.8333,14.01,51,25,4.1,JP,1683839656
214,nova sintra,14.8667,-24.7167,20.18,80,1,8.78,CV,1683839656
215,emerald,-23.5333,148.1667,14.63,88,3,3.9,AU,1683839474
216,seymour,38.9592,-85.8903,30.1,56,79,3.22,US,1683839657
217,nova xavantina,-14.6667,-52.35,25.43,64,96,0.24,BR,1683839551
218,la grande,45.3246,-118.0877,20.55,34,44,2.25,US,1683839657
219,buenaventura,3.8801,-77.0312,29.59,73,72,2.26,CO,1683839658
220,mungwi,-10.1732,31.3694,14.73,93,76,1.14,ZM,1683839658
221,al hazm,16.1641,44.7769,28.44,19,3,3.37,YE,1683839658
222,sorong,-0.8833,131.25,26.28,84,100,0.4,ID,1683839659
223,revda,56.801,59.9303,3.36,83,9,2.25,RU,1683839659
224,hunsur,12.3075,76.2878,22.57,83,100,3.23,IN,1683839659
225,ceeldheer,3.8488,47.1806,26.79,84,91,7.16,SO,1683839659
226,san jose de feliciano,-30.3845,-58.7517,14.71,63,59,2.96,AR,1683839660
227,cuenca,-2.8833,-78.9833,17.87,73,90,2.75,EC,1683839273
228,east london,-33.0153,27.9116,19.26,75,100,6.01,ZA,1683839660
229,melfort,52.8667,-104.6177,20.79,33,100,1.75,CA,1683839660
230,cedral,23.8,-100.7333,30.4,11,0,3.94,MX,1683839661
231,hermanus,-34.4187,19.2345,11.0,70,100,5.64,ZA,1683839661
232,el bauga,18.262,33.9081,32.32,9,1,3.82,SD,1683839661
233,aral,40.5156,81.2636,18.4,9,86,4.22,CN,1683839662
234,sao tome,0.3365,6.7273,27.93,80,74,2.88,ST,1683839596
235,extrema,-22.8547,-46.3183,15.44,89,3,1.12,BR,1683839662
236,manay,7.215,126.5397,25.7,85,100,1.54,PH,1683839662
237,arno,60.1167,18.6333,9.32,60,59,4.18,SE,1683839663
238,tsiombe,-25.3,45.4833,22.6,85,100,1.87,MG,1683839663
239,bikenibeu village,1.3673,173.1241,29.98,79,75,4.12,KI,1683839663
240,smirnykh,49.75,142.8333,3.39,75,74,1.09,RU,1683839664
241,st. thomas,42.7736,-81.1804,26.81,32,10,4.1,CA,1683839613
242,markovo,57.3206,107.0881,-1.51,87,99,1.71,RU,1683839664
243,kingston,17.997,-76.7936,30.13,75,0,0.45,JM,1683839377
244,saint-jean-sur-richelieu,45.3168,-73.2659,25.5,33,5,2.68,CA,1683839486
245,tariba,7.8188,-72.2243,28.31,59,100,2.08,VE,1683839665
246,knysna,-34.0363,23.0471,14.29,87,100,4.4,ZA,1683839665
247,salekhard,66.53,66.6019,-11.75,97,100,1.41,RU,1683839665
248,sikasso,10.9167,-7.0,33.61,20,95,2.0,ML,1683839666
249,yuzhno-kurilsk,44.0306,145.8556,4.69,78,10,4.36,RU,1683839666
250,cheremushki,52.8356,91.3944,9.78,92,98,2.53,RU,1683839666
251,san antonio de pale,-1.4014,5.6325,28.29,80,100,4.55,GQ,1683839667
252,sampit,-2.5333,112.95,24.37,98,38,1.19,ID,1683839667
253,orleans,30.0335,-89.9501,31.11,65,75,7.72,US,1683839667
254,katsuura,35.1333,140.3,16.0,64,100,2.59,JP,1683839667
255,waingapu,-9.6567,120.2641,24.0,83,78,4.69,ID,1683839668
256,xining,36.6167,101.7667,6.21,75,100,0.81,CN,1683839668
257,hauterive,46.0901,3.4459,9.42,95,58,0.39,FR,1683839668
258,bocana de paiwas,12.7857,-85.1227,32.35,46,98,6.19,NI,1683839669
259,chonchi,-42.6128,-73.8092,13.4,90,100,0.99,CL,1683839669
260,yeraliyev,43.2,51.65,16.02,80,18,8.27,KZ,1683839669
261,canutama,-6.5339,-64.3831,25.31,96,100,0.59,BR,1683839669
262,nadym,65.5333,72.5167,-10.28,94,76,2.63,RU,1683839670
263,vallenar,-28.5708,-70.7581,26.26,35,56,2.74,CL,1683839670
264,tazovsky,67.4667,78.7,-20.77,100,81,3.34,RU,1683839670
265,noumea,-22.2763,166.4572,23.33,99,100,5.27,NC,1683839260
266,burghausen,48.1667,12.8333,10.56,99,100,0.8,DE,1683839671
267,sao martinho,39.5144,-9.1311,16.27,84,1,5.36,PT,1683839671
268,cidreira,-30.1811,-50.2056,16.25,79,81,5.3,BR,1683839671
269,fruita,39.1589,-108.729,21.62,34,75,5.66,US,1683839494
270,popondetta,-8.7537,148.2534,24.85,86,100,1.12,PG,1683839672
271,swamimalai,10.95,79.3333,27.21,75,100,5.25,IN,1683839672
272,vilyuysk,63.7553,121.6247,-0.33,64,4,1.6,RU,1683839673
273,tamboril,19.4854,-70.611,28.43,65,75,2.57,DO,1683839673
274,juneau,58.3019,-134.4197,13.0,54,100,6.69,US,1683839464
275,voinjama,8.4219,-9.7478,23.33,79,99,0.59,LR,1683839673
276,burao,9.5221,45.5336,25.86,56,100,5.55,SO,1683839674
277,green,40.9459,-81.4832,26.11,31,20,1.54,US,1683839674
278,lewisville,33.0462,-96.9942,32.1,64,40,9.26,US,1683839674
279,lander,42.833,-108.7307,14.21,72,100,2.06,US,1683839613
280,ad dawadimi,24.5077,44.3924,30.3,14,60,5.29,SA,1683839676
281,atafu village,-8.5421,-172.5159,29.07,77,78,6.56,TK,1683839677
282,bubaque,11.2833,-15.8333,26.63,72,82,8.98,GW,1683839678
283,freeport,40.6576,-73.5832,28.88,47,0,6.26,US,1683839461
284,kununurra,-15.7667,128.7333,17.99,42,3,2.57,AU,1683839678
285,kokopo,-4.352,152.2633,25.93,85,100,1.99,PG,1683839679
286,komsomolets,53.7453,62.0708,9.23,48,69,3.0,KZ,1683839679
287,chibougamau,49.9168,-74.3659,19.78,29,13,3.74,CA,1683839679
288,wangdue phodrang,27.4862,89.8991,13.44,50,0,0.91,BT,1683839679
289,balkashino,52.5167,68.7667,8.37,66,73,3.32,KZ,1683839680
290,torrington,41.8007,-73.1212,27.01,28,4,2.24,US,1683839523
291,kerema,-7.9631,145.7785,25.86,86,99,1.29,PG,1683839680
292,zharkent,44.1628,80.0,21.24,15,100,1.38,KZ,1683839680
293,port blair,11.6667,92.75,28.49,78,100,9.93,IN,1683839681
294,mhamid,29.82,-5.72,32.98,7,34,6.94,MA,1683839681
295,colonia,50.9333,6.95,13.87,90,20,1.54,DE,1683839439
296,levanger,63.7464,11.2996,11.03,80,100,0.76,NO,1683839682
297,mayya,61.7333,130.2811,-1.38,56,100,3.28,RU,1683839682
298,callao,-12.0667,-77.15,25.95,68,100,7.72,PE,1683839682
299,newman,37.3138,-121.0208,26.19,46,82,3.13,US,1683839682
300,inhambane,-23.865,35.3833,21.86,81,15,3.28,MZ,1683839683
301,whakatane,-37.9585,176.9854,10.43,81,13,1.34,NZ,1683839683
302,sisimiut,66.9395,-53.6735,-2.05,88,100,7.27,GL,1683839683
303,woolgoolga,-30.1106,153.2007,13.36,85,8,1.88,AU,1683839683
304,qamdo,31.1667,97.2333,-3.93,78,96,1.86,CN,1683839684
305,uwajima,33.2238,132.56,14.23,59,1,2.19,JP,1683839684
306,buka,40.8108,69.1986,24.31,30,100,0.39,UZ,1683839684
307,shizuoka,34.9769,138.3831,13.84,88,40,1.03,JP,1683839685
308,barra de santo antonio,-9.4047,-35.5072,26.6,77,13,5.16,BR,1683839685
309,leava,-14.3,-178.1667,28.82,70,19,8.12,WF,1683839685
310,ciudad lazaro cardenas,17.9583,-102.2,30.16,62,75,5.2,MX,1683839401
311,launceston,-41.45,147.1667,9.8,90,100,2.57,AU,1683839686
312,chimore,-16.9833,-65.1333,26.05,69,100,0.49,BO,1683839429
313,kapit,2.0167,112.9333,23.41,97,56,0.27,MY,1683839686
314,pommelsbrunn,49.5044,11.511,10.64,99,100,1.91,DE,1683839686
315,pyapon,16.2833,95.6833,28.02,77,100,4.64,MM,1683839687
316,meulaboh,4.1363,96.1285,25.58,90,69,2.36,ID,1683839687
317,san ignacio de velasco,-16.3667,-60.95,24.09,85,87,1.36,BO,1683839687
318,qingquan,30.4511,115.2559,14.23,87,0,1.17,CN,1683839688
319,jiuquan,39.7432,98.5174,13.1,20,44,2.15,CN,1683839688
320,dalandzadgad,43.5708,104.425,5.32,66,2,5.3,MN,1683839688
321,fray luis a. beltran,-32.7912,-60.7282,17.77,67,0,1.54,AR,1683839688
322,forster,-32.1667,152.5167,12.65,90,10,2.16,AU,1683839689
323,hithadhoo,-0.6,73.0833,27.95,80,100,6.26,MV,1683839689
324,antofagasta,-23.65,-70.4,17.6,72,2,2.28,CL,1683839558
325,rongelap,11.1635,166.8941,27.28,83,94,7.29,MH,1683839690
326,fort st. john,56.2499,-120.8529,21.31,31,29,1.82,CA,1683839690
327,arkhangel'sk,64.5401,40.5433,3.72,96,46,2.28,RU,1683839473
328,benguela,-12.5763,13.4055,25.1,88,7,0.95,AO,1683839612
329,manaure,11.7751,-72.4445,32.25,49,50,6.91,CO,1683839691
330,sinop,41.7711,34.8709,6.5,93,86,2.23,TR,1683839691
331,egilsstadir,65.2653,-14.3948,11.24,72,100,5.09,IS,1683839648
332,san jose,37.3394,-121.895,22.42,56,20,9.26,US,1683839347
333,ulsteinvik,62.3432,5.8487,11.61,94,99,0.79,NO,1683839692
334,sitka,57.0531,-135.33,13.94,51,75,6.17,US,1683839692
335,kirakira,-10.4544,161.9205,27.58,84,63,4.85,SB,1683839692
336,vernon,50.2581,-119.2691,24.61,28,75,1.03,CA,1683838837
337,ribas do rio pardo,-20.4431,-53.7592,20.34,73,73,3.05,BR,1683839693
338,nahiyat ash shinafiyah,31.5874,44.6602,30.96,14,0,4.3,IQ,1683839693
339,fomboni,-12.28,43.7425,27.66,72,2,2.3,KM,1683839693
340,saiha,22.4833,92.9667,21.22,70,100,1.28,IN,1683839693
341,ryotsu-minato,38.0833,138.4333,11.26,72,0,2.58,JP,1683839411
342,pacific grove,36.6177,-121.9166,19.19,75,75,5.14,US,1683839694
343,el calafate,-50.3408,-72.2768,8.53,77,100,2.7,AR,1683839694
344,misratah,32.3754,15.0925,19.2,71,19,1.65,LY,1683839694
345,papao,-17.75,-149.55,27.82,91,100,8.77,PF,1683839695
346,oppdal,62.5943,9.6912,8.33,90,100,1.07,NO,1683839695
347,lamu,-2.2717,40.902,27.12,85,67,5.22,KE,1683839696
348,haiku-pauwela,20.9219,-156.3051,29.01,45,20,9.26,US,1683839694
349,nikolayevsk-on-amure,53.1406,140.73,4.07,68,10,1.29,RU,1683839696
350,yazykovo,55.2199,56.1353,8.25,67,99,3.95,RU,1683839696
351,sidney,-33.8679,151.2073,12.44,89,20,3.6,AU,1683839538
352,bogo,11.0517,124.0055,26.74,85,98,3.22,PH,1683839697
353,indramayu,-6.3264,108.32,27.09,83,92,4.04,ID,1683839697
354,horta,38.5333,-28.6333,15.57,82,2,2.24,PT,1683839697
355,mount pearl,47.5166,-52.7813,9.69,44,14,4.02,CA,1683839698
356,valley city,46.9233,-98.0032,25.29,53,0,6.17,US,1683839698
357,dinghaicun,26.2847,119.7936,17.49,75,94,4.22,CN,1683839698
358,plettenberg bay,-34.0527,23.3716,14.59,85,100,5.37,ZA,1683839699
359,remire-montjoly,4.9167,-52.2667,25.02,88,75,1.03,GF,1683839699
360,bengkulu,-3.8004,102.2655,25.35,85,62,2.3,ID,1683839699
361,portland,45.5234,-122.6762,24.91,48,62,2.24,US,1683839098
362,lerwick,60.1545,-1.1494,9.0,90,2,3.63,GB,1683839700
363,noosa heads,-26.3833,153.15,16.17,74,11,5.88,AU,1683839700
364,ridder,50.355,83.5133,13.2,65,92,2.27,KZ,1683839700
365,qacha's nek,-30.1154,28.6894,9.37,44,100,1.31,LS,1683839700
366,mossendjo,-2.9506,12.7261,21.53,97,100,0.18,CG,1683839701
367,midvagur,62.0511,-7.1939,9.46,81,100,1.54,FO,1683839701
368,ancud,-41.8697,-73.8203,13.13,90,100,4.18,CL,1683839701
369,flying fish cove,-10.4217,105.6791,26.82,94,100,6.69,CX,1683839702
370,richards bay,-28.783,32.0377,19.31,90,0,2.66,ZA,1683839702
371,atar,20.5169,-13.0499,31.82,25,97,4.08,MR,1683839703
372,sergeyevka,53.88,67.4158,8.24,64,100,4.81,KZ,1683839703
373,klaksvik,62.2266,-6.589,9.51,85,1,2.95,FO,1683839704
374,el porvenir,13.7617,-87.3458,23.63,37,48,4.24,HN,1683839704
375,zakynthos,37.7914,20.8953,17.58,76,0,1.04,GR,1683839705
376,kaoma,-14.7833,24.8,15.17,50,1,2.63,ZM,1683839705
377,almazan,41.4865,-2.5309,9.27,78,3,4.18,ES,1683839705
378,teknaf,20.8624,92.3058,25.8,88,99,1.61,BD,1683839706
379,tchintabaraden,15.8969,5.7985,34.76,15,72,3.09,NE,1683839706
380,laayoune,27.1622,-13.2032,19.34,75,6,8.8,EH,1683839595
381,kailua-kona,19.6406,-155.9956,27.98,81,40,6.17,US,1683839679
382,crane,31.3974,-102.3501,30.05,8,0,6.99,US,1683839707
383,ialibu,-6.2821,143.9935,14.08,95,100,1.2,PG,1683839707
384,kolyshley,52.7005,44.5367,8.63,86,100,4.98,RU,1683839708
385,weno,7.4515,151.8468,28.57,77,76,2.6,FM,1683839709
386,tosontsengel,48.7567,98.2839,3.8,43,72,1.01,MN,1683839710
387,rio preto da eva,-2.6994,-59.6997,25.84,95,75,1.31,BR,1683839711
388,brindisi,40.5833,17.6667,16.54,89,0,4.8,IT,1683839711
389,mugia,43.1041,-9.2179,14.39,76,3,7.3,ES,1683839712
390,cochin,9.9399,76.2602,25.99,80,100,0.8,IN,1683839712
391,constitucion,-35.3333,-72.4167,17.68,64,95,6.36,CL,1683839712
392,la gi,10.6667,107.7833,26.97,83,100,2.93,VN,1683839713
393,queenstown,-31.8976,26.8753,11.32,92,76,1.91,ZA,1683839647
394,kabalo,-6.05,26.9167,22.53,84,60,1.7,CD,1683839713
395,dodge city,37.7528,-100.0171,23.86,74,20,7.72,US,1683839714
396,ghormach,35.7306,63.7826,21.66,41,2,2.3,AF,1683839714
397,poronaysk,49.2167,143.1167,4.17,79,100,1.21,RU,1683839714
398,hirara,24.8,125.2833,22.84,64,70,5.16,JP,1683839715
399,pontianak,-0.0333,109.3333,25.99,100,31,0.51,ID,1683839481
400,mazagao,-0.115,-51.2894,25.03,85,47,1.54,BR,1683839720
401,nandu,22.8525,110.8233,19.68,97,100,1.58,CN,1683839721
402,prince rupert,54.3161,-130.3201,12.83,54,100,8.75,CA,1683839721
403,walnut,34.0203,-117.8653,24.4,55,20,3.09,US,1683839460
404,cozumel,20.5083,-86.9458,31.04,70,75,4.63,MX,1683839721
405,mirnyy,62.5353,113.9611,-5.72,90,12,2.09,RU,1683839722
406,cadale,2.7603,46.3222,27.09,87,97,7.08,SO,1683839722
407,lazaro cardenas,17.9583,-102.2,30.16,62,75,5.2,MX,1683839722
408,zag,46.9441,99.165,3.67,46,76,0.75,MN,1683839723
409,berberati,4.2612,15.7922,22.55,80,51,1.0,CF,1683839723
410,naolinco de victoria,19.65,-96.85,26.42,52,58,1.13,MX,1683839723
411,polyarnyy,69.1989,33.4478,3.19,99,100,2.06,RU,1683839723
412,aykhal,66.0,111.5,-1.17,96,100,7.79,RU,1683839724
413,espoo,60.25,24.6667,10.22,60,0,3.13,FI,1683839617
414,usinsk,65.9939,57.5281,-0.23,87,100,4.88,RU,1683839724
415,san isidro de curuguaty,-24.5167,-55.7,17.78,66,0,1.95,PY,1683839724
416,grao de murviedro,39.6417,-0.2389,19.03,71,40,1.03,ES,1683839725
417,baiti,13.745,-14.7482,36.05,19,74,3.38,SN,1683839725
418,twon-brass,4.3151,6.2418,28.22,74,58,4.23,NG,1683839726
419,montepuez,-13.1256,38.9997,19.09,92,99,1.88,MZ,1683839726
420,kharkhorin,47.1975,102.8238,1.77,84,9,2.49,MN,1683839726
421,la'ie,21.6477,-157.9253,26.98,74,25,2.68,US,1683839433
422,san fernando,15.0286,120.6898,26.16,86,97,1.5,PH,1683839727
423,keyser,39.4409,-78.9739,27.19,36,23,0.89,US,1683839727
424,kunshan,31.3776,120.9543,17.17,55,100,1.25,CN,1683839727
425,sur,22.5667,59.5289,31.76,45,0,3.89,OM,1683839283
426,peniche,39.3558,-9.3811,16.27,83,0,12.6,PT,1683839728
427,yesilhisar,38.3497,35.0867,15.0,64,82,1.51,TR,1683839728
428,fort bragg,35.139,-79.006,29.0,39,20,3.6,US,1683839728
429,porto novo,6.4965,2.6036,28.15,82,61,3.37,BJ,1683839729
430,puerto ayacucho,5.6639,-67.6236,30.02,65,55,1.39,VE,1683839729
431,smidovich,48.6,133.8167,9.79,63,0,1.55,RU,1683839729
432,nelson bay,-32.7167,152.15,13.89,100,11,1.34,AU,1683839729
433,gualaceo,-2.9,-78.7833,22.81,80,98,2.3,EC,1683839730
434,alice springs,-23.7,133.8833,2.75,81,0,2.35,AU,1683839730
435,kruisfontein,-34.0033,24.7314,14.92,81,100,7.5,ZA,1683839731
436,bonthe,7.5264,-12.505,27.59,79,73,3.72,SL,1683839731
437,ust-tsilma,65.441,52.1498,2.02,100,100,1.89,RU,1683839731
438,angra do heroismo,38.65,-27.2167,17.84,95,59,2.84,PT,1683839733
439,camocim,-2.9022,-40.8411,26.54,86,77,4.1,BR,1683839541
440,hammerfest,70.6634,23.6821,6.25,100,75,2.57,NO,1683839734
441,whangarei,-35.7317,174.3239,11.5,78,8,1.46,NZ,1683839739
442,iquique,-20.2208,-70.1431,19.02,64,41,1.84,CL,1683839739
443,san miguel de cauri,-10.1,-76.5833,10.66,71,100,2.21,PE,1683839740
444,brokopondo,4.75,-55.1667,25.22,92,80,3.64,SR,1683839740
445,baramula,34.2,74.35,11.27,52,100,0.49,IN,1683839740
446,west livingston,30.6983,-95.0019,30.03,72,100,6.26,US,1683839741
447,santa ana,33.7456,-117.8678,24.25,57,75,3.6,US,1683839319
448,saint-denis,48.9167,2.3333,13.09,76,0,2.06,FR,1683839741
449,umm kaddadah,13.6017,26.6876,32.9,27,96,3.37,SD,1683839742
450,homer,59.6425,-151.5483,10.94,52,0,2.57,US,1683839742
451,robertsport,6.7533,-11.3686,27.92,83,100,3.08,LR,1683839742
452,sao jose da coroa grande,-8.8978,-35.1478,25.86,76,11,4.34,BR,1683839742
453,shache,38.4167,77.2406,16.18,12,45,1.96,CN,1683839743
454,khonsa,27.0167,95.5667,17.98,52,91,1.98,IN,1683839743
455,mil'kovo,55.6078,37.7956,11.86,80,82,1.77,RU,1683839743
456,vadso,70.0744,29.7487,7.49,87,0,1.03,NO,1683839743
457,chela,34.069,104.4619,6.3,66,100,1.57,CN,1683839744
458,khlevnoye,52.1951,39.0932,11.01,87,49,3.24,RU,1683839744
459,happy valley-goose bay,53.3168,-60.3315,12.17,24,20,3.6,CA,1683839744
460,fortuna,40.5982,-124.1573,14.25,84,100,5.66,US,1683839299
461,port saint john's,-31.6229,29.5448,20.89,79,100,5.33,ZA,1683839745
462,mogocha,53.7333,119.7667,3.81,83,100,4.95,RU,1683839745
463,sheregesh,52.9209,87.9869,9.55,88,71,3.41,RU,1683839745
464,cockburn town,21.4612,-71.1419,27.02,74,35,5.23,TC,1683839745
465,atbara,17.7022,33.9864,32.59,9,0,4.26,SD,1683839746
466,ndola,-12.9587,28.6366,13.11,73,5,2.13,ZM,1683839746
467,murghob,38.1702,73.9667,-1.92,50,84,2.46,TJ,1683839746
468,tofol,5.3248,163.0078,26.44,83,98,1.62,FM,1683839747
469,berezovyy,51.6667,135.7,8.03,56,23,1.09,RU,1683839747
470,tsiroanomandidy,-18.7667,46.0333,20.18,74,98,0.54,MG,1683839747
471,alesund,62.4723,6.1549,11.61,98,75,1.03,NO,1683839590
472,pedernales,18.0384,-71.744,29.86,60,67,2.29,DO,1683839748
473,luena,-11.7833,19.9167,14.86,55,0,0.37,AO,1683839748
474,indian harbour beach,28.1489,-80.5884,31.14,69,0,6.69,US,1683839748
475,gadzhiyevo,69.2551,33.3362,2.41,100,100,1.95,RU,1683839748
476,autun,46.95,4.3,8.02,99,100,1.11,FR,1683839749
477,libenge,3.65,18.6333,24.18,81,98,0.43,CD,1683839749
478,tarija,-21.5355,-64.7296,16.71,77,99,3.73,BO,1683839525
479,la tuque,47.4334,-72.7824,24.14,22,0,3.6,CA,1683839750
480,bulandshahr,28.4,77.85,29.33,12,1,1.44,IN,1683839316
481,cuichapa,18.7667,-96.8667,30.37,52,60,2.43,MX,1683839750
482,biltine,14.5333,20.9167,32.87,28,100,6.38,TD,1683839750
483,lipova,46.0833,21.7,13.57,67,100,2.31,RO,1683839751
484,mahina,-17.5065,-149.489,27.87,69,75,3.09,PF,1683839690
485,mount gambier,-37.8333,140.7667,11.09,93,84,0.87,AU,1683839751
486,maceio,-9.6658,-35.7353,26.69,83,0,3.09,BR,1683839751
487,outokumpu,62.7269,29.0159,7.94,58,17,2.77,FI,1683839752
488,lompoc,34.6391,-120.4579,23.16,71,75,11.62,US,1683839539
489,la ronge,55.1001,-105.2842,24.12,21,20,4.12,CA,1683839752
490,al jadid,27.05,14.4,23.21,34,3,4.14,LY,1683839752
491,zunyi,27.6867,106.9072,14.38,90,100,1.61,CN,1683839753
492,akhty,41.4597,47.7312,12.8,88,100,1.71,RU,1683839753
493,nishinoomote,30.7333,131.0,20.16,64,5,4.0,JP,1683839754
494,marechal deodoro,-9.7103,-35.895,26.67,79,27,4.79,BR,1683839755
495,nizhneangarsk,55.7833,109.55,-2.33,81,15,1.36,RU,1683839755
496,ha giang,22.8333,104.9833,22.7,93,100,1.08,VN,1683839756
497,necochea,-38.5473,-58.7368,11.89,57,50,2.74,AR,1683839756
498,kharp,66.8014,65.8081,-11.17,94,40,2.01,RU,1683839757
499,shimanovsk,52.0,127.7,11.92,36,100,4.82,RU,1683839757
500,targu secuiesc,46.0,26.1333,3.77,84,91,1.86,RO,1683839758
501,lumphat,13.4878,106.9816,24.24,96,100,0.93,KH,1683839758
502,prado,-17.3411,-39.2208,23.9,81,80,3.31,BR,1683839759
503,knyaze-volkonskoye,48.4642,135.4567,8.19,73,81,2.07,RU,1683839759
504,saudarkrokur,65.7461,-19.6394,10.85,74,100,7.11,IS,1683839759
505,dongsheng,39.8161,109.9776,11.85,31,2,6.85,CN,1683839759
506,"laikit, laikit ii (dimembe)",1.4792,124.9735,24.47,89,40,1.03,ID,1683839760
507,thyez,46.0825,6.5378,10.86,96,88,1.12,FR,1683839760
508,cacador,-26.7753,-51.015,9.61,77,3,1.22,BR,1683839760
509,qoryooley,1.7878,44.53,25.59,89,47,5.49,SO,1683839761
510,fort mcmurray,56.7268,-111.381,25.42,25,31,0.51,CA,1683839476
511,brigantine,39.4101,-74.3646,26.11,59,0,4.63,US,1683839761
512,kujang-up,39.8672,126.0303,12.43,82,100,0.37,KP,1683839761
513,metairie terrace,29.9785,-90.164,31.67,66,100,7.72,US,1683839762
514,myitkyina,25.3833,97.4,23.54,48,27,1.05,MM,1683839762
515,archangelos,36.2149,28.1149,17.99,80,89,5.33,GR,1683839762
516,lexington,37.9887,-84.4777,24.97,68,100,3.09,US,1683839556
517,cinco saltos,-38.8222,-68.0629,19.85,45,48,0.0,AR,1683839763
518,stillwater,36.1156,-97.0584,24.3,72,67,1.79,US,1683839605
519,waynesville,35.4887,-82.9887,22.92,65,100,1.35,US,1683839763
520,itamaraca,-7.7478,-34.8256,28.03,76,55,3.55,BR,1683839764
521,erbil,36.1926,44.0106,19.9,32,0,1.54,IQ,1683839764
522,agat village,13.3886,144.6585,28.53,92,36,0.45,GU,1683839764
523,kani keli,-12.9536,45.1033,25.59,74,3,1.74,YT,1683839764
524,maun,-19.9833,23.4167,18.04,39,41,2.58,BW,1683839609
525,kachkanar,58.7,59.4948,1.9,79,31,0.48,RU,1683839765
526,laurens,32.4502,-82.9165,30.24,61,0,2.57,US,1683839660
527,ada,43.4166,-116.1262,21.38,34,0,5.81,US,1683839766
528,zagora,30.3484,-5.8365,31.38,10,50,7.14,MA,1683839766
529,ghat,24.9647,10.1728,26.01,20,92,5.28,LY,1683839766
530,mersing,2.4312,103.8405,26.7,85,17,1.68,MY,1683839342
531,bafq,31.6128,55.4107,25.69,20,10,1.97,IR,1683839767
532,la passe,45.5549,-0.8967,13.88,81,10,4.21,FR,1683839767
533,nuku'alofa,-21.1333,-175.2,25.74,82,39,5.31,TO,1683839744
534,ratnagiri,16.9833,73.3,27.99,83,78,1.69,IN,1683839349
535,rio grande,-32.035,-52.0986,20.06,70,43,4.11,BR,1683839768
536,bamboo flat,11.7,92.7167,28.46,78,100,9.92,IN,1683839768
537,tselina,46.5338,41.0328,6.13,94,7,3.74,RU,1683839768
538,filingue,14.3521,3.3168,34.97,27,69,5.73,NE,1683839769
539,kaga bandoro,6.9896,19.1874,23.18,88,90,2.72,CF,1683839769
540,margate,51.3813,1.3862,12.05,83,4,0.45,GB,1683839769
541,guerrero negro,27.9769,-114.0611,18.42,60,35,9.8,MX,1683839770
542,taoudenni,22.6783,-3.9836,35.51,9,88,5.26,ML,1683839770
543,alofi,-19.0595,-169.9187,26.07,82,13,8.6,NU,1683839770
544,vyaz'ma,55.2104,34.2951,7.68,86,43,2.57,RU,1683839770
545,gumdag,39.2061,54.5906,23.46,40,0,2.81,TM,1683839771
546,elliot,-31.3333,27.85,10.83,67,61,1.16,ZA,1683839771
547,north bend,43.4065,-124.2243,21.25,71,0,5.14,US,1683839771
548,moletai,55.2333,25.4167,8.89,60,12,1.58,LT,1683839771
549,ndele,8.4109,20.6473,24.4,73,100,1.35,CF,1683839772
550,darhan,49.4867,105.9228,3.12,73,6,2.79,MN,1683839772
551,el fasher,13.6279,25.3494,32.66,28,98,3.91,SD,1683839772
552,tamarin,-20.3256,57.3706,25.31,80,57,5.09,MU,1683839773
553,goldap,54.3063,22.3036,8.41,58,5,3.23,PL,1683839773
554,zlatoust,55.1711,59.6508,6.66,29,85,2.24,RU,1683839773
555,novyy urgal,51.0736,132.5642,7.91,57,18,0.52,RU,1683839773
556,igra,57.5558,53.0547,5.77,63,25,2.34,RU,1683839774
557,sanctuary point,-35.1114,150.629,11.85,77,0,3.05,AU,1683839719
558,cam ranh,11.9214,109.1591,27.98,89,20,0.51,VN,1683839774
559,le muy,43.4738,6.5645,14.25,70,30,2.06,FR,1683839775
560,itaporanga,-7.3044,-38.1503,28.64,42,75,2.89,BR,1683839775
561,kyaikto,17.3,97.0167,26.49,84,100,2.77,MM,1683839775
562,weihai,37.5017,122.1136,15.51,48,100,4.05,CN,1683839775
563,nova vicosa,-17.8919,-39.3719,24.83,77,91,3.56,BR,1683839776
564,new norfolk,-42.7826,147.0587,8.84,68,100,1.34,AU,1683839704
565,castillos,-34.1667,-53.8333,15.63,55,99,3.26,UY,1683839776
566,hobyo,5.3505,48.5268,27.13,86,86,10.63,SO,1683839777
567,gizo,-8.103,156.8419,28.43,76,36,2.97,SB,1683839779
568,puerto colombia,10.9878,-74.9547,30.05,81,84,7.15,CO,1683839779
